@type|@id|@lat|@lon|addr:city|addr:housenumber|addr:postcode|addr:street|email|contact:email|fax|name|full_name|short_name|alt_name|phone|contact:phone|website
node|1588863641|50.2546524|19.0011822|Katowice|39|40-074|Raciborska|wsse.katowice@pis.gov.pl|||Wojewódzka Stacja Sanitarno-Epidemiologiczna||||||http://www.wsse.katowice.pl/
node|1754825666|53.8288601|22.3520011|Ełk|6A|19-300|Toruńska|sanepid.elk@wp.pl|||Sanepid Ełk|Powiatowa Stacja Sanitarno - Epidemiologiczna w Ełku|||+48876217750||
node|2289996533|53.2575901|19.4065077|Brodnica|1|87-300|Franciszka Żwirki i Stanisława Wigury|psse.brodnica@pis.gov.pl|||Powiatowa Stacja Sanitarno–Epidemiologiczna w Brodnicy||||+48 22 25 00 115||
node|2779676801|53.1187300|18.0054598|Bydgoszcz|4|85-031|Kujawska||||Wojewódzka Stacja Sanitarno - Epidemiologiczna w Bydgoszczy||Sanepid Bydgoszcz WSEE||||
node|2863413351|52.0142900|18.5044800|Turek|1a|62-700|Uniejowska||||Sanepid||||||
node|2898809727|53.1089744|19.0699953||||||||Sanepid||||||
node|3029757321|50.2681696|19.5707082|||||psse.olkusz@pis.gov.pl||+48 32 754 57 50|Powiatowa Stacja Sanitarno-Epidemiologiczna|Powiatowa Stacja Sanitarno-Epidemiologiczna w Olkuszu|PSSE w Olkuszu|Sanepid w Olkuszu|+48 32 754 57 20||https://www.gov.pl/web/psse-olkusz
node|3063712740|53.4927230|18.7540748|||||psse.grudziadz@pis.gov.pl||+48 56 451 78 11|Powiatowa Stacja Sanitarno-Epidemiologiczna|Powiatowa Stacja Sanitarno-Epidemiologiczna w Grudziądzu|PSSE w Grudziądzu|Sanepid w Grudziądzu|+48 56 451 78 10||http://www.ppis.grudziadz.com/
node|3134432737|52.5994540|16.5886200|Szamotuły|8|64-500|Bolesława Chrobrego||||Powiatowa Stacja Sanitarno-epidemiologiczna w Szamotułach||||||
node|3208352974|52.8786053|20.6017600|Ciechanów|27|06-400|Henryka Sienkiewicza|ciechanow@psse.waw.pl|||Powiatowa Stacja Sanitarno-Epidemiologiczna w Ciechanowie||||(23) 672-33-13||http://www.ciechanow.psse.waw.pl/
node|3225006028|51.6457000|22.9085500|Parczew|54|21-200|Piwonia|psse.parczew@pis.gov.pl||+48 83 354 13 10|Powiatowa Stacja Sanitarno-Epidemiologiczna|Powiatowa Stacja Sanitarno-Epidemiologiczna w Parczewie|PSSE w Parczewie|Sanepid w Parczewie|+48 83 354 23 29||https://www.gov.pl/web/psse-parczew
node|3445365648|50.6663057|17.9385892|||||wsse.opole@pis.gov.pl||+48 77 442 69 04|Wojewódzka stacja sanitarno-epidemiologiczna w Opolu|||||+48 77 442 69 01|
node|3978131640|52.2094212|18.2509551|Konin|16|62-500|Stanisława Staszica||||Powiatowa Stacja Sanitarno-Epidemiologiczna w Koninie||||||
node|4375210241|51.5030266|16.0686650|Polkowice|22|59-100|Rynek|psse.polkowice@pis.gov.pl||+48 76 746 22 47|Powiatowa Stacja Sanitarno-Epidemiologiczna|Powiatowa Stacja Sanitarno-Epidemiologiczna w Polkowicach|PSSE w Polkowicach|Sanepid w Polkowicach|+48 76 746 22 46||https://www.gov.pl/web/psse-polkowice
node|4506965689|52.0362213|23.1035486|||21-500|||||Sanepid- laboratorium||||||
node|4733985100|51.9566667|20.1336557||||||||Powiatowa Stacja Sanitarno-Epidemiologiczna||Sanepid||||
node|4945927567|53.9098647|14.2474966||||||||Powiatowa Stacja Sanitarno-Epidemiologiczna|||||+48 604571667|
node|5090007626|51.8830836|17.0063387||||||||Powiatowa Stacja Sanitarno – Epidemiologiczna w Gostyniu||Sanepid||||http://www.psse-gostyn.pl/
node|5429088140|50.2960336|21.4438355|||||psse.mielec@pis.gov.pl||+48 17 586 30 21|Powiatowa Stacja Sanitarno-Epidemiologiczna|Powiatowa Stacja Sanitarno-Epidemiologiczna w Mielcu|PSSE w Mielcu|Sanepid|+48 17 586 30 21||https://www.gov.pl/web/psse-mielec
node|5518083676|53.5449487|14.5438719||||||||Powiatowa Stacja Sanitarno – Epidemiologiczna w Policach||||||https://pssepolice.pis.gov.pl/
node|6368652201|53.4507133|14.5148684|||||psse.szczecin@pis.gov.pl||+48 91 4861 141; +48 91 4849 358|Powiatowa Stacja Sanitarno-Epidemiologiczna w Szczecinie||PSSE Szczecin||+48 91 4870 313; +48 91 4849 351||https://psseszczecin.pis.gov.pl/
node|6501407544|53.5580607|20.9874015||||||||Powiatowa Stacja Sanitarno-Epidemiologiczna||||+48 89 624 87 31||https://www.sanepid.szczytno.pl/
node|6522150709|51.8028238|15.7149668|Nowa Sól|11|67-100|Wojska Polskiego||||Powiatowa Stacja Sanitarno-Epidemiologiczna||||||
node|6522150710|51.6123782|15.3306796|Żagań|45A|68-100|Szprotawska||||Powiatowa Stacja Sanitarno-Epidemiologiczna||||||
node|6522150743|51.9298182|15.5028537|Zielona Góra|10|65-470|Jasna|pssezielonagora@wsse.gorzow.pl||+48 68 325 50 70|Powiatowa Stacja Sanitarno-Epidemiologiczna||||+48 68 325 46 71||http://www.wsse.gorzow.pl/pssezielonagora/
node|6522150744|52.2491996|15.5319430|Świebodzin|5|66-200|30 Stycznia||||Powiatowa Stacja Sanitarno-Epidemiologiczna||||||
node|6564424736|52.0776980|21.0675674|Konstancin-Jeziorna|7|05-510|Dworska|piaseczno@psse.waw.pl|||Powiatowa Stacja Sanitarno-Epidemiologiczna||||+48 22 756 46 20||http://piaseczno.psse.waw.pl/
node|6727411090|49.9997801|18.4597454|||||sekretariat@psse.wodzislaw.pl|||Powiatowa Stacja Sanitarno-Epidemiologiczna||||+48324563810||www.psse.wodzislaw.pl
node|6815087887|51.3764414|20.2885348|||26-300|||||Powiatowa Stacja Sanitarno-Epidemiologiczna w Opocznie||||||http://psse.opoczno.pl
node|6876451295|52.3499988|14.5577793|Słubice|6|69-100|Adama Mickiewicza||||Powiatowa Stacja Sanitarno-Epidemiologiczna||||||
node|6885557385|50.2738796|19.1437225|||41-200||psse.sosnowiec@pis.gov.pl|||Powiatowa Stacja Sanitarno-Epidemiologiczna||||322662823||http://www.psse.sosnowiec.pl
node|7180862940|52.9121525|22.5110592|Wysokie Mazowieckie|9|18-200|1 Maja|pssewysmaz@wp.pl||+48 86 275 25 85|Powiatowa Stacja Sanitarno-Epidemiologiczna|Powiatowa Stacja Sanitarno-Epidemiologiczna w Wysokiem Mazowieckiem|PSSE w Wysokiem Mazowieckiem|Sanepid w Wysokiem Mazowieckiem|+48 86 275 25 91||https://www.gov.pl/web/psse-wysokie-mazowieckie
node|7234955077|51.2452158|22.5466421||||||||Powiatowa Stacja Sanitarno-Epidemiologiczna||||||https://psselublin.pis.gov.pl/
node|7288597652|53.4149305|14.5554802|||||wsse.szczecin@pis.gov.pl; kancelaria@wsse.szczecin.pl||+48 91 462-46-40|Wojewódzka Stacja Sanitarno-Epidemiologiczna w Szczecinie||WSSE Szczecin||+48 91 462-40-60||http://wsse.szczecin.pl/
node|7318684248|54.3586362|18.6543148||||||psse.gdansk@pis.gov.pl||Powiatowa Stacja Sanitarno-Epidemiologiczna w Gdańsku||||+48 58 320 08 00||https://www.psse.gda.pl/
node|7335182054|52.6545631|19.1031778|Włocławek|45|87-800|Płocka||||Powiatowa Stacja Sanitarno-Epidemiologiczna we Włocławku||||+48 54 413 71 92||
node|7337269261|51.1198966|17.0275496||||||||Wojewódzka Stacja Sanitarno-Epidemiologiczna||sanepid||||http://www.wsse.wroc.pl/
node|7389421288|53.0092445|18.5712356|Toruń|1|87-100|Szosa Bydgoska||||Powiatowa Stacja Sanitarno - Epidemiologiczna w Toruniu||Sanepid Toruń|Sanepid Toruń|+48 56 622 50 29||https://torun.psse.gov.pl/
node|7394687848|52.6568317|19.0622341|Włocławek|16|87-800|Jana Kilińskiego||||Powiatowa Stacja Sanitarno-Epidemiologiczna we Włocławku||Sanepid Włocławek|sanepid Włocławek|+48 54 411 68 33||www.pssewloclawek.pl
node|7471885252|52.8748882|18.6964083||||||||Powiatowa Stacja Sanitarno-Epidemiologiczna w Aleksandrowie Kujawskim||Sanepid Aleksandrów Kujawski||||
node|7538570829|49.6876128|19.2052867|||||psse.zywiec@pis.gov.pl||+48 33 866 67 73|Powiatowa Stacja Sanitarno-Epidemiologiczna||||+48 33 861 21 37; +48 33 866 67 72; +48 605 538 283||http://www.psse.zywiec.pl/
node|7548747878|50.3211901|19.1825889||||||||Powiatowa Stacja Sanitarno - Epidemiologiczna||||||
node|7595781965|51.2355272|20.8665628||||||||Powiatowa Stacja Sanitarno-Epidemiologiczna w Szydłowcu||||||
node|7652127084|53.2599019|14.4897157|||||psse.gryfino@pis.gov.pl;sekretariat@pssegryfino.pl||+48 91 416 38 58|Powiatowa Stacja Sanitarno-Epidemiologiczna w Gryfinie||PSSE Gryfino||+48 91 416 23 43; +48 91 416 38 58||https://pssegryfino.pis.gov.pl/index.php
node|7816057767|51.6248548|21.9351766|Ryki|2|08-500|Stanisława Poniatowskiego|psse.ryki@pis.gov.pl||+48 81 865 16 37|Powiatowa Stacja Sanitarno-Epidemiologiczna|Powiatowa Stacja Sanitarno-Epidemiologiczna w Rykach|PSSE w Rykach|Sanepid w Rykach|+48 81 865 16 37||www.gov.pl/web/psse-ryki
node|8524107531|53.9200156|15.1965525|||||psse.gryfice@pis.gov.pl|||Powiatowa Stacja Sanitarno-Epidemiologiczna w Gryficach||||||
node|8789278921|52.0485637|19.2151846|Łęczyca|18|99-100|Adama Mickiewicza||||Powiatowa Stacja Sanitarno – Epidemiologiczna||||||
node|8893578711|50.8722807|20.6051764|Kielce|68|25-734|Jagiellońska|wsse.kielce@pis.gov.pl||+48 41 345 18 73|Wojewódzka Stacja Sanitarno-Epidemiologiczna|Wojewódzka Stacja Sanitarno-Epidemiologiczna w Kielcach|WSSE w Kielcach|Sanepid w Kielcach|+48 22 250 01 15||https://www.gov.pl/web/wsse-kielce
node|8925865016|52.1553282|20.9847375|||||import.gsse.warszawa@sanepid.gov.pl|||Graniczna Stacja Sanitarno-Epidemiologiczna||||+48 22 345 64 00||
node|9344092070|52.6297414|20.3755811|||||plonsk@psse.waw.pl|||Powiatowa Stacja Sanitarno-Epidemiologiczna w Płońsku||||+48 23 662 28 39||https://www.gov.pl/web/psse-plonsk/psse-plonsk
node|9646450966|51.3105013|17.0600751||||||||Powiatowa Stacja Sanitarno-Epidemiologiczna||||||
node|10067605777|52.5421384|19.6960375||||||||Powiatowa Stacja Sanitarno - Epidemiologiczna w Płocku||||||
node|10210062520|50.5166278|22.1575245|||||sekretariat.psse.nisko@sanepid.gov.pl|||Powiatowa Stacja Sanitarno-Epidemiologiczna||PSSE Nisko||+48 15 841 20 10||https://www.gov.pl/web/psse-nisko
node|10313727053|51.2904454|22.8786949|||||psse.leczna@pis.gov.pl||+48 81 752 31 67|Powiatowa Stacja Sanitarno-Epidemiologiczna|Powiatowa Stacja Sanitarno-Epidemiologiczna w Łęcznej|PSSE w Łęcznej|Sanepid w Łęcznej|+48 81 752 31 67||https://www.gov.pl/web/psse-leczna
node|10313739624|50.0164027|22.6800911|||||psse.jaroslaw@pis.gov.pl||+48 16 621 25 18|Powiatowa Stacja Sanitarno-Epidemiologiczna Jarosław||PSSE Jarosław|Sanepid|+48 16 624 24 40||https://www.gov.pl/web/psse-jaroslaw
node|10313766915|51.4135037|21.9632108|||||psse.pulawy@pis.gov.pl||+48 81 886 48 91|Powiatowa Stacja Sanitarno-Epidemiologiczna|Powiatowa Stacja Sanitarno-Epidemiologiczna w Puławach|PSSE w Puławach|Sanepid w Puławach|+48 81 886 48 91||www.gov.pl/web/psse-pulawy
node|10313774606|51.2271156|22.6995673|||||psse.swidnik@pis.gov.pl||+48 81 468 70 20|Powiatowa Stacja Sanitarno-Epidemiologiczna|Powiatowa Stacja Sanitarno-Epidemiologiczna w Świdniku|PSSE w Świdniku|Sanepid w Świdniku|+48 81 745 56 10||https://www.gov.pl/web/psse-swidnik
node|10313775975|52.0758000|23.5139000|||||gsse.koroszczyn@pis.gov.pl||+48 83 375 30 26|Graniczna Stacja Sanitarno-Epidemiologiczna w Koroszczynie||GSSE w Koroszczynie|Sanepid w Koroszczynie|+48 83 375 30 56||www.gssekoroszczyn.pis.gov.pl
node|10313780611|50.6965445|22.4277329|||||psse.janowlubelski@pis.gov.pl||+48 15 872 47 62|Powiatowa Stacja Sanitarno-Epidemiologiczna|Powiatowa Stacja Sanitarno-Epidemiologiczna w Janowie Lubelskim|PSSE w Janowie Lubelskim|Sanepid w Janowie Lubelskim|+48 15 872 54 00||www.gov.pl/web/psse-janow-lubelski
node|10313780612|50.2775410|23.5890475|||||gsse.hrebenne@pis.gov.pl||+48 84 667 41 33|Graniczna Stacja Sanitarno-Epidemiologiczna|Graniczna Stacja Sanitarno-Epidemiologiczna w Hrebennem|GSSE w Hrebennem|Sanepid w Hrebennem|+48 84 539 61 20||https://www.gov.pl/web/gsse-hrebenne
node|10313789464|51.1805321|23.8023127|Dorohusk||22-175||gsse.dorohusk@pis.gov.pl||+48 82 566 17 14|Graniczna Stacja Sanitarno-Epidemiologiczna|Graniczna Stacja Sanitarno-Epidemiologiczna w Dorohusku|GSSE w Dorohusku|Sanepid w Dorohusku|+48 82 566 17 14||www.gssedorohusk.pis.gov.pl
node|10313812294|49.6922990|22.0086313|||||psse.brzozow@pis.gov.pl||+48 13 434 14 59|Powiatowa Stacja Sanitarno-Epidemiologiczna|Powiatowa Stacja Sanitarno-Epidemiologiczna w Brzozowie|PSSE w Brzozowie|Sanepid|+48 13 434 14 59||https://www.gov.pl/web/psse-brzozow
node|10313829042|49.4328471|22.6029547|Ustrzyki Dolne|53|38-700|29 Listopada|psse.ustrzykidolne@pis.gov.pl||+48 13 461 28 06|Powiatowa Stacja Sanitarno-Epidemiologiczna|Powiatowa Stacja Sanitarno-Epidemiologiczna w Ustrzykach Dolnych|PSSE w Ustrzykach Dolnych|Sanepid|+48 13 461 28 06||https://www.gov.pl/web/psse-ustrzyki-dolne
node|10313829043|49.7842520|22.7903972|||||przemysl@wsse.rzeszow.pl||+48 16 678 85 58|Wojewódzka Stacja Sanitarno-Epidemiologiczna Oddział LAB|Wojewódzka Stacja Sanitarno-Epidemiologiczna Oddział LAB w Przemyślu|WSSE (LAB) w Przemyślu|Sanepid w Przemyślu|+48 16 678 88 58||https://www.gov.pl/web/wsse-rzeszow/laboratoria-pis
node|10313829044|49.7841584|22.7906767|||||psse.przemysl@pis.gov.pl||+48 16 670 07 38|Powiatowa Stacja Sanitarno-Epidemiologiczna|Powiatowa Stacja Sanitarno-Epidemiologiczna w Przemyślu|PSSE w Przemyślu|Sanepid|+48 16 670 76 91||https://www.gov.pl/web/psse-przemysl
node|10313837066|49.7841715|22.7903927|||||gsse.przemysl@pis.gov.pl||+48 16 678 45 87|Graniczna Stacja Sanitarno-Epidemiologiczna Przemyśl||GSSE w Przemyślu|Sanepid|+48 16 678 27 86||https://www.gov.pl/web/gsse-przemysl
node|10313840514|49.8688520|21.7889757|||||psse.strzyzow@pis.gov.pl||+48 17 276 11 52|Powiatowa Stacja Sanitarno-Epidemiologiczna Strzyżów||PSSES|Sanepid|+48 17 276 11 52||https://www.gov.pl/web/psse-strzyzow/
node|10315292285|51.5582844|23.5533358|||||psse.wlodawa@pis.gov.pl||+48 82 572 14 05|Powiatowa Stacja Sanitarno-Epidemiologiczna||PSSE we Włodawie|Sanepid we Włodawie|+48 82 572 14 05||https://www.gov.pl/web/psse-wlodawa
node|10541989743|50.0468730|21.4021717|||||psse.debica@pis.gov.pl||+48 14 680 93 71|Powiatowa Stacja Sanitarno-Epidemiologiczna|Powiatowa Stacja Sanitarno-Epidemiologiczna w Dębicy|PSSE w Dębicy|Sanepid|+48 14 680 93 70||https://www.gov.pl/web/psse-debica
node|10542083986|51.5313355|20.0219596|||||tomaszow@pis.lodz.pl||+48 44 724 51 17|Powiatowa Stacja Sanitarno-Epidemiologiczna|Powiatowa Stacja Sanitarno-Epidemiologiczna w Tomaszowie Mazowieckim|PSSE w Tomaszowie Mazowieckim|Sanepid w Tomaszowie Mazowieckim|+48 44 724 49 35||www.gov.pl/web/psse-tomaszow-mazowiecki
node|10542085231|53.1525250|16.7171016|||||psse.pila@pis.gov.pl||+48 67 351 98 80|Powiatowa Stacja Sanitarno-Epidemiologiczna|Powiatowa Stacja Sanitarno-Epidemiologiczna w Pile|PSSE w Pile|Sanepid w Pile|+48 67 212 52 98||http://www.psse-pila.pl/
node|10544439382|53.2669543|16.4608515|||||psse.walcz@pis.gov.pl||+48 67 258 23 31|Powiatowa Stacja Sanitarno-Epidemiologiczna|Powiatowa Stacja Sanitarno-Epidemiologiczna w Wałczu|PSSE w Wałczu|Sanepid w Wałczu|+48 67 258 23 31||pssewalcz.pis.gov.pl
node|10544441934|54.2474936|20.8139424|||||psse.bartoszyce@sanepid.olsztyn.pl||+48 89 762 21 50|Powiatowa Stacja Sanitarno-Epidemiologiczna Bartoszyce||PSSEB|Sanepid|+48 89 762 21 50||www.bip.psse-bartoszyce.pl
node|10544444922|52.8645741|21.0940786|||||makow@psse.waw.pl||+48 29 717 13 00|Powiatowa Stacja Sanitarno-Epidemiologiczna|Powiatowa Stacja Sanitarno-Epidemiologiczna w Makowie Mazowieckim|PSSE w Makowie Mazowieckim|Sanepid w Makowie Maz.|+48 29 717 13 00||www.gov.pl/web/psse-makow-mazowiecki
node|10544449061|51.2951978|18.1608001|||||wieruszow@pis.lodz.pl||+48 62 783 19 90|Powiatowa Stacja Sanitarno-Epidemiologiczna|Powiatowa Stacja Sanitarno-Epidemiologiczna w Wieruszowie|PSSE w Wieruszowie|Sanepid w Wieruszowie|+48 62 783 19 90||www.gov.pl/web/psse-wieruszow
node|10544469270|52.7079214|21.0845115|||||pultusk@psse.waw.pl||+48 23 692 61 66|Powiatowa Stacja Sanitarno-Epidemiologiczna|Powiatowa Stacja Sanitarno-Epidemiologiczna w Pułtusku|PSSE w Pułtusku|Sanepid w Pułtusku|+48 23 692 50 71||https://www.gov.pl/web/psse-pultusk
way|58670363|53.4476128|14.5186830|Szczecin|160||aleja Wojska Polskiego|gsse.szczecin@pis.gov.pl||"+48 91-462-32-71,30"|Graniczna Stacja Sanitarno-Epidemiologiczna w Szczecinie||GSSE Szczecin||+48 91-462-43-18||https://gsseszczecin.pl/
way|68076984|53.6911742|17.5699599|Chojnice|39|89-600|Marszałka Józefa Piłsudskiego|psse.chojnice@pis.gov.pl||+48 52 396 80 81|Powiatowa Stacja Sanitarno-Epidemiologiczna|Powiatowa Stacja Sanitarno-Epidemiologiczna w Chojnicach|PSSE w Chojnicach|Sanepid w Chojnicach|+48 52 397 63 95||http://www.psse.chojnice.pl/
way|103724525|51.6612896|16.0957675|Głogów|4|67-200|Piotra Skargi||||Powiatowa Stacja Sanitarno-Epidemiologiczna||||+48 76 727 25 94||
way|112465449|53.5876159|17.8599812|Tuchola|23|89-500|Plac Wolności|psse.tuchola@pis.gov.pl||+48 52 334 20 21|Powiatowa Stacja Sanitarno-Epidemiologiczna|Powiatowa Stacja Sanitarno-Epidemiologiczna w Tucholi|PSSE w Tucholi|Sanepid w Tucholi|+48 52 334 20 21||https://www.gov.pl/web/psse-tuchola
way|137707567|54.5496894|18.4983875|Gdynia|4|81-155|Kontenerowa|gsse.gdynia@pis.gov.pl||+48 58 621 33 99|Graniczna Stacja Sanitarno-Epidemiologiczna w Gdyni||||+48 58 620 81 15||https://www.gov.pl/web/gsse-gdynia
way|143082630|51.3984478|16.1996660|Lubin|15|59-300|1 Maja||||Powiatowa Stacja Sanitarno-Epidemiologiczna||||||http://psse.lubin.ibip.wroc.pl/
way|154867618|53.1347382|18.0093325|Bydgoszcz|27|85-079|Tadeusza Kościuszki|psse.bydgoszcz@pis.gov.pl||+48 52 584 11 44|Powiatowa Stacja Sanitarno-Epidemiologiczna|Powiatowa Stacja Sanitarno-Epidemiologiczna w Bydgoszczy|PSSE w Bydgoszczy|Sanepid w Bydgoszczy|+48 52 515 40 20||www.ppis.bydgoszcz.pl
way|166443925|50.2630513|22.4177250|Leżajsk|71|37-300|Adama Mickiewicza|psse.lezajsk@pis.gov.pl||+48 17 240 18 44|Powiatowa Stacja Sanitarno-Epidemiologiczna|Powiatowa Stacja Sanitarno-Epidemiologiczna w Leżajsku|PSSE w Leżajsku|Sanepid|+48 17 242 07 54||https://www.gov.pl/web/psse-lezajsk
way|166878229|50.7161617|23.2605827|Zamość|96|22-400|Peowiaków|psse.zamosc@pis.gov.pl||+48 84 627 10 59|Powiatowa Stacja Sanitarno-Epidemiologiczna|Powiatowa Stacja Sanitarno-Epidemiologiczna w Zamościu|PSSE w Zamościu|Sanepid w Zamościu|+48 84 639 36 91||https://www.gov.pl/web/psse-zamosc
way|169274608|54.3410121|18.2008856|Kartuzy|30A|83-300|Sambora||||Powiatowa Stacja Sanitarno-Epidemiologiczna||||||
way|175191654|50.8531888|19.9579951|Włoszczowa|38|29-100|Jana III Sobieskiego|psse.wloszczowa@pis.gov.pl||+48 41 394 34 96|Powiatowa Stacja Sanitarno-Epidemiologiczna|Powiatowa Stacja Sanitarno-Epidemiologiczna we Włoszczowie|PSSE we Włoszczowie|Sanepid we Włoszczowie|+48 22 250 01 15||www.gov.pl/web/psse-wloszczowa
way|176543396|51.7987337|19.7542542|Brzeziny|3|95-060|Reformacka|psse.brzeziny@pis.gov.pl||+48 46 874 33 30|Powiatowa Stacja Sanitarno-Epidemiologiczna|Powiatowa Stacja Sanitarno-Epidemiologiczna w Brzezinach|PSSE w Brzezinach|Sanepid w Brzezinach|+48 46 874 33 30||www.gov.pl/web/psse-brzeziny
way|176792408|51.2397654|22.5080161|Lublin|6|20-708|Pielęgniarek|wsse.lublin@pis.gov.pl||+48 81 743 46 86|Wojewódzka Stacja Sanitarno-Epidemiologiczna|Wojewódzka Stacja Sanitarno-Epidemiologiczna w Lublinie|WSSE w Lublinie|Sanepid w Lublinie|+48 81 743 42 72||www.gov.pl/web/wsse-lublin
way|176990072|53.1312278|23.1745353|Białystok|57A||Warszawska||||Powiatowa Stacja Sanitarno-Epidemiologiczna||||||http://www.psse.bialystok.pl
way|178016971|49.6836390|21.7553384|Krosno|12|38-400|Stefana Kisielewskiego|psse.krosno@pis.gov.pl||+48 13 432 19 45|Powiatowa Stacja Sanitarno-Epidemiologiczna Krosno||PSSE w Krośnie|Sanepid w Krośnie|+48 13 432 19 42||https://www.gov.pl/web/psse-krosno
way|180955726|50.0872635|19.9379218|Kraków|76|31-202|Prądnicka|wsse@wsse.krakow.pl||+48 12 416 20 93|Wojewódzka Stacja Sanitarno-Epidemiologiczna|Wojewódzka Stacja Sanitarno-Epidemiologiczna w Krakowie|WSSE w Krakowie|Sanepid w Krakowie|+48 12 254 95 55||https://www.gov.pl/web/wsse-krakow
way|188456450|53.4061986|22.8002338|Mońki|5|19-100|Tysiąclecia|sekretariat@monki.psse.gov.pl||+48 85 727 90 65|Powiatowa Stacja Sanitarno-Epidemiologiczna|Powiatowa Stacja Sanitarno-Epidemiologiczna w Mońkach|PSSE w Mońkach|Sanepid w Mońkach|+48 85 716 26 17||https://www.gov.pl/web/psse-monki
way|193966866|52.7399091|15.2303818|Gorzów Wielkopolski|12b||Adama Mickiewicza||||Wojewódzka Stacja Sanitarno-Epidemiologiczna||||||
way|194112659|50.0655256|22.2293061|Łańcut|6|37-100|Adama Mickiewicza|psse.lancut@pis.gov.pl||+48 17 225 00 72|Powiatowa Stacja Sanitarno-Epidemiologiczna|Powiatowa Stacja Sanitarno-Epidemiologiczna w Łańcucie|PSSE w Łańcucie|Sanepid|+48 17 225 00 70||https://www.gov.pl/web/psse-lancut
way|198079890|50.0340442|22.0145206|Rzeszów|16|35-959|Wierzbowa|dyzur@wsse.rzeszow.pl||+48 17 852 22 92|Wojewódzka Stacja Sanitarno-Epidemiologiczna|Wojewódzka Stacja Sanitarno-Epidemiologiczna w Rzeszowie|WSSE w Rzeszowie|Sanepid w Rzeszowie|+48 17 852 21 11||https://wsse.rzeszow.pl/
way|201235187|50.0234820|21.9865656|Rzeszów|79a||Generała Jarosława Dąbrowskiego||||Powiatowa Stacja Sanitarno-Epidemiologiczna w Rzeszowie||||||http://psserzeszow.pl
way|203212569|53.3485636|18.4454291|Chełmno|2a|86-200|Łunawska|psse.chelmno@pis.gov.pl||+48 56 676 15 13|Powiatowa Stacja Sanitarno-Epidemiologiczna|Powiatowa Stacja Sanitarno-Epidemiologiczna w Chełmnie|PSSE w Chełmnie|Sanepid w Chełmnie|+48 56 676 17 00||https://www.gov.pl/web/psse-chelmno/kontakt2
way|204687673|50.8999364|15.7291246|Jelenia Góra|17|58-500|Jana Kasprowicza|psse.jeleniagora@pis.gov.pl||+48 75 643 55 61|Powiatowa Stacja Sanitarno-Epidemiologiczna|Powiatowa Stacja Sanitarno-Epidemiologiczna w Jeleniej Górze|PSSE w Jeleniej Górze|Sanepid w Jeleniej Górze|+48 75 643 55 60||https://www.gov.pl/web/psse-jelenia-gora
way|205446119|52.2022365|18.6292098|Koło|72|62-600|Toruńska|sekretariat.psse.kolo@sanepid.gov.pl||+48 63 272 22 79|Powiatowa Stacja Sanitarno-Epidemiologiczna|Powiatowa Stacja Sanitarno-Epidemiologiczna w Kole|PSSE w Kole|Sanepid w Kole|+48 63 27 22 279||https://www.gov.pl/web/psse-kolo/
way|225922981|50.4667247|17.3323165||||||||Powiatowa Stacja Sanitarno-Epidemiologiczna||PSSE||||http://www.pssenysa.pl/
way|228861657|50.7264133|16.6473496|Dzierżoniów|36|58-200|Ignacego Krasickiego||||Sanepid||||+48748323333||https://www.gov.pl/web/psse-dzierzoniow/
way|234958269|51.6400602|15.1358001|Żary|23a;23A|68-200|Podchorążych||||Powiatowa Stacja Sanitarno-Epidemiologiczna||||||
way|236603295|53.1309354|23.1600534|Białystok|8||Legionowa||||Wojewódzka Stacja Sanitarno-Epidemiologiczna w Białymstoku|||Sanepid|+48857408540||https://www.wsse.bialystok.pl/
way|250058247|52.8393836|15.8358842|Drezdenko|11|66-530|Bolesława Chrobrego|pssedrezdenko@wsse.gorzow.pl||+48 95 762 08 99|Powiatowa Stacja Sanitarno-Epidemiologiczna|Powiatowa Stacja Sanitarno-Epidemiologiczna w Drezdenku|PSSE w Drezdenku|Sanepid w Drezdenku|+48 95 762 05 20||https://www.gov.pl/web/psse-drezdenko
way|257675563|52.0314055|23.1095276|Biała Podlaska|18|21-500|Warszawska|psse.bialapodlaska@pis.gov.pl||+48 83 343 76 39|Powiatowa Stacja Sanitarno-Epidemiologiczna|Powiatowa Stacja Sanitarno-Epidemiologiczna w Białej Podlaskiej|PSSE w Białej Podlaskiej|Sanepid w Białej Podlaskiej|+48 83 344 41 60||https://www.gov.pl/web/psse-biala-podlaska
way|262734224|50.9743352|18.2172422|Kluczbork|8|46-200|Jagiellońska||||Powiatowa Stacja Sanitarno-Epidemiologiczna|||||77 418 2257|
way|267278323|50.1105403|18.5452037|Rybnik|1|44-200|Kapitana Leopolda Janiego||||Powiatowa Stacja Sanitarno-Epidemiologiczna||||||
way|267528780|49.5504327|22.2007078|Sanok|39|38-500|Jezierskiego|sanok@wsse.rzeszow.pl||+48 13 464 57 65|Wojewódzka Stacja Sanitarno-Epidemiologiczna Oddział LAB|Wojewódzka Stacja Sanitarno-Epidemiologiczna Oddział LAB w Sanoku|||+48 13 463 39 23||https://www.gov.pl/web/wsse-rzeszow/laboratoria-pis
way|267528782|49.5503382|22.2010371|Sanok|39|38-500|Jezierskiego|psse.sanok@pis.gov.pl||+48 13 464 12 19|Powiatowa Stacja Sanitarno-Epidemiologiczna Sanok||PSSES|Sanepid|+48 13 464 12 19||https://www.gov.pl/web/psse-sanok
way|271243383|51.7597777|18.0838620|Kalisz|6|62-800|Tadeusza Kościuszki||||Powiatowa Stacja Sanitarno-Epidemiologiczna||||||
way|289514896|49.8855688|19.4936765|Wadowice|2|34-100|Teatralna|psse.wadowice@pis.gov.pl||+48 33 823 35 11|Powiatowa Stacja Sanitarno-Epidemiologiczna|Powiatowa Stacja Sanitarno-Epidemiologiczna w Wadowicach|PSSE w Wadowicach|Sanepid w Wadowicach|+48 33 823 37 66||https://www.gov.pl/web/psse-wadowice
way|290366790|52.0518530|15.0885231|Krosno Odrzańskie|24|66-600|Nadodrzańska||||Powiatowa Stacja Sanitarno-Epidemiologiczna||||||
way|292555061|50.4933460|19.4173538|Zawiercie|15|42-400|11 Listopada|psse.zawiercie@pis.gov.pl||+48 32 672 12 10|Powiatowa Stacja Sanitarno-Epidemiologiczna|Powiatowa Stacja Sanitarno-Epidemiologiczna w Zawierciu|PSSE w Zawierciu|Sanepid w Zawierciu|+48 32 672 12 10||www.gov.pl/psse-zawiercie
way|295507738|51.8971851|17.7821643|Pleszew|30|63-300|Poznańska|psse.pleszew@pis.gov.pl|||Powiatowa Stacja Sanitarno-Epidemiologiczna w Pleszewie||||+48625081330||http://www.psse-pleszew.pl/
way|299654832|50.1284721|18.9698437||||||||Powiatowa Stacja Sanitarno - Epidemiologiczna||||||https://pssetychy.pis.gov.pl
way|300052245|51.1502215|23.4574937|Chełm|48|22-100|Szpitalna|psse.chelm@pis.gov.pl||+48 82 565 30 13|Powiatowa Stacja Sanitarno-Epidemiologiczna|Powiatowa Stacja Sanitarno-Epidemiologiczna w Chełmie|PSSE w Chełmie|Sanepid w Chełmie|+48 82 565 34 21||www.gov.pl/web/psse-chelm
way|300354971|52.2327153|19.3643922|Kutno|14||Tadeusza Kościuszki|psse.kutno@pis.gov.pl|||Powiatowa Stacja Sanitarno-Epidemiologiczna w Kutnie||||+48 024 355 71 100||http://www.pis.lodz.pl/kutno/
way|301268298|53.1116452|20.3849715|Mława|6|06-500|Plac 1 Maja||||Powiatowa Stacja Sanitarno - Epidemiologiczna||||||
way|303617131|51.6488818|17.8191586|Ostrów Wielkopolski|3|63-400||psse.ostrowwlkp@pis.gov.pl||+48 62 737 89 20|Powiatowa Stacja Sanitarno-Epidemiologiczna|Powiatowa Stacja Sanitarno-Epidemiologiczna w Ostrowie Wielkopolskim|PSSE w Ostrowie Wielkopolskim|Sanepid w Ostrowie Wielkopolskim|+48 62 737 89 00||http://www.psse-ostrow.pl/
way|311527664|52.1067875|20.6180442|Grodzisk Mazowiecki|10|05-825|Franciszka Żwirki i Stanisława Wigury|grodzisk@psse.waw.pl|||Powiatowa Stacja Sanitarno-Epidemiologiczna|Powiatowa Stacja Sanitarno-Epidemiologiczna w Grodzisku Mazowieckim|PSSE w Grodzisku Mazowieckim|Sanepid w Grodzisku Mazowieckim|+48 22 755 57 76||www.grodzisk.psse.waw.pl
way|312216360|53.9689529|18.5329058|Starogard Gdański|5|83-200|Kanałowa|psse.starogardgdanski@pis.gov.pl||+48 58 562 40 11|Powiatowa Stacja Sanitarno-Epidemiologiczna|Powiatowa Stacja Sanitarno-Epidemiologiczna w Starogardzie Gdańskim|PSSE w Starogardzie Gdańskim|Sanepid w Starogardzie Gdańskim|+48 58 562 40 12||http://www.psse-starogard.pl/
way|337542608|50.9206038|22.2162386|Kraśnik|36|23-200|Tadeusza Kościuszki|psse.krasnik@pis.gov.pl||+48 81 884 36 73|Powiatowa Stacja Sanitarno-Epidemiologiczna|Powiatowa Stacja Sanitarno-Epidemiologiczna w Kraśniku|PSSE w Kraśniku|Sanepid w Kraśniku|+48 81 884 36 73||www.gov.pl/web/psse-krasnik
way|348785815|49.3033182|19.9609705|Zakopane|19a|34-500|Chramcówki|zakopane@psse.malopolska.pl||+48 18 206 84 10|Powiatowa Stacja Sanitarno-Epidemiologiczna|Powiatowa Stacja Sanitarno-Epidemiologiczna w Zakopanem|PSSE w Zakopanem|Sanepid w Zakopanem|+48 18 206 86 97||https://www.gov.pl/web/psse-zakopane
way|351807362|51.1502146|18.9886578|Pajęczno|7|98-330|Stefana Żeromskiego|pajeczno@pis.lodz.pl||+48 34 311 39 27|Powiatowa Stacja Sanitarno-Epidemiologiczna|Powiatowa Stacja Sanitarno-Epidemiologiczna w Pajęcznie|PSSE w Pajęcznie|Sanepid w Pajęcznie|+48 34 311 34 95||www.gov.pl/web/psse-pajeczno
way|352409436|50.8559703|20.5542825|Kielce|4|25-819|Leona Skibińskiego|psse.kielce@pis.gov.pl||+48 41 345 46 23|Powiatowa Stacja Sanitarno-Epidemiologiczna|Powiatowa Stacja Sanitarno-Epidemiologiczna w Kielcach|PSSE w Kielcach|Sanepid w Kielcach|+48 22 250 01 15||www.gov.pl/web/psse-kielce
way|357273773|50.3582252|20.0366522|Miechów|6a|32-200|Marii Konopnickiej|miechow@psse.malopolska.pl||+48 41 383 11 59|Powiatowa Stacja Sanitarno-Epidemiologiczna|Powiatowa Stacja Sanitarno-Epidemiologiczna w Miechowie|PSSE w Miechowie|Sanepid w Miechowie|+48 41 389 04 50||https://www.gov.pl/web/psse-miechow
way|358717766|51.1506789|21.9706049|Opole Lubelskie|1|24-300|Puławska|psse.opolelubelskie@pis.gov.pl||+48 81 827 20 41|Powiatowa Stacja Sanitarno-Epidemiologiczna|Powiatowa Stacja Sanitarno-Epidemiologiczna w Opolu Lubelskim|PSSE w Opolu Lubelskim|Sanepid w Opolu Lubelskim|+48 81 470 84 39||www.gov.pl/web/psse-opole-lubelskie
way|359652313|52.0572385|20.4503683|Żyrardów|40|96-300|Stanisława Moniuszki|zyrardow@psse.waw.pl||+48 46 855 38 13|Powiatowa Stacja Sanitarno-Epidemiologiczna|Powiatowa Stacja Sanitarno-Epidemiologiczna w Żyrardowie|PSSE w Żyrardowie|Sanepid w Żyrardowie|+48 46 855 38 13||https://www.gov.pl/web/psse-zyrardow
way|361798986|50.9815337|23.1703318|Krasnystaw|3A|22-300|Sikorskiego|psse.krasnystaw@pis.gov.pl||+48 82 576 28 32|Powiatowa Stacja Sanitarno-Epidemiologiczna|Powiatowa Stacja Sanitarno-Epidemiologiczna w Krasnymstawie|PSSE w Krasnymstawie|Sanepid w Krasnymstawie|+48 82 576 28 32||https://www.gov.pl/web/psse-krasnystaw
way|362896046|53.5635083|14.8331550|Goleniów|36|72-100|Pocztowa|psse.goleniow@pis.gov.pl||+48 91 418 31 95|Powiatowa Stacja Sanitarno-Epidemiologiczna||Sanepid||+48 91 418 23 22||https://www.gov.pl/web/psse-goleniow
way|363606345|52.3387827|21.2417077|Wołomin|76|05-200|Legionów|wolomin@psse.waw.pl||+48 22 776 38 33|Powiatowa Stacja Sanitarno-Epidemiologiczna|Powiatowa Stacja Sanitarno-Epidemiologiczna w Wołominie|PSSE w Wołominie|Sanepid w Wołominie|+48 22 776 38 33||www.wolomin.psse.waw.pl
way|365479890|51.7842652|22.6194348|Radzyń Podlaski|5|21-300|Pocztowa|psse.radzynpodlaski@pis.gov.pl||+48 83 352 74 16|Powiatowa Stacja Sanitarno-Epidemiologiczna|Powiatowa Stacja Sanitarno-Epidemiologiczna w Radzyniu Podlaskim|PSSE w Radzyniu Podlaskim|Sanepid w Radzyniu Podlaskim|+48 83 352 74 16||https://www.gov.pl/web/psse-radzyn-podlaski
way|366093411|50.9352937|21.3832860|Ostrowiec Świętokrzyski|3|27-400|Smolna|sekretariat.psse.ostrowiec@sanepid.gov.pl||+48 41 247 96 97|Powiatowa Stacja Sanitarno-Epidemiologiczna|Powiatowa Stacja Sanitarno-Epidemiologiczna w Ostrowcu-Świętokrzyskim|PSSE w Ostrowcu-Świętokrzyskim|Sanepid w Ostrowcu-Świętokrzyskim|+48 41 247 96 95||https://www.gov.pl/web/psse-ostrowiec-swietokrzyski/dane-kontaktowe
way|366769047|51.8457875|16.5882968|Leszno|66|64-100|Niepodległości||||Powiatowa Stacja Sanitarno-Epidemiologiczna||||||
way|367020314|50.8065837|23.8891416|Hrubieszów|6|22-500|27 Wołyńskiej Dywizji Piechoty AK|psse.hrubieszow@pis.gov.pl||+48 84 696 50 10|Powiatowa Stacja Sanitarno Epidemiologiczna|Powiatowa Stacja Sanitarno Epidemiologiczna w Hrubieszowie|PSSE w Hrubieszowie|Sanepid w Hrubieszowie|+48 84 696 50 10||https://www.gov.pl/web/psse-hrubieszow
way|373351424|50.4476528|23.4166620|Tomaszów Lubelski|51|22-600|Lwowska|psse.tomaszowlubelski@pis.gov.pl||+48 84 664 23 61|Powiatowa Stacja Sanitarno-Epidemiologiczna|Powiatowa Stacja Sanitarno-Epidemiologiczna w Tomaszowie Lubelskim|PSSE w Tomaszowie Lubelskim|Sanepid w Tomaszowie Lubelskim|+48 84 664 44 78||https://www.gov.pl/web/psse-tomaszow-lubelski
way|394446127|51.1117801|15.5790886|Lwówek Śląski|6|59-601|Partyzantów||||Powiatowa Stacja Sanitarno-Epidemiologiczna w Lwówku Śląskim||||||
way|396984996|50.7813289|16.0291939|Kamienna Góra|5|58-400|Henryka Sienkiewicza|psse.kamiennagora@pis.gov.pl||+48 75 645 01 41|Powiatowa Stacja Sanitarno-Epidemiologiczna|Powiatowa Stacja Sanitarno-Epidemiologiczna w Kamiennej Górze|PSSE w Kamiennej Górze|Sanepid w Kamiennej Górze|+48 75 645 01 40||https://www.gov.pl/web/psse-kamienna-gora
way|405609246|49.7472794|21.4716711|Jasło|13|38-200|Antoniego Koralewskiego|psse.jaslo@pis.gov.pl||+48 13 446 34 66|Powiatowa Stacja Sanitarno-Epidemiologiczna|Powiatowa Stacja Sanitarno-Epidemiologiczna w Jaśle|PSSE w Jaśle|Sanepid|+48 13 446 30 08||https://www.gov.pl/web/psse-jaslo
way|423654052|52.2269868|20.2372875|Sochaczew|18|96-500|Romualda Traugutta|sochaczew@psse.waw.pl||+48 46 862 22 66|Powiatowa Stacja Sanitarno-Epidemiologiczna|Powiatowa Stacja Sanitarno-Epidemiologiczna w Sochaczewie|PSSE w Sochaczewie|Sanepid w Sochaczewie|+48 46 862 22 66||http://www.sochaczew.psse.waw.pl/
way|425762150|50.8994066|18.9355679||||||||Powiatowa Stacja Sanitarno- Epidemiologiczna w Kłobucku||||+48 343172260||
way|427376449|50.2036181|17.8284563|Głubczyce|1b|48-100|Grunwaldzka|psse.glubczyce@pis.gov.pl||+48 77 471 07 18|Powiatowa Stacja Sanitarno-Epidemiologiczna|Powiatowa Stacja Sanitarno-Epidemiologiczna w Głubczycach|PSSE w Głubczycach|Sanepid w Głubczycach|+48 77 471 07 17||www.psseglubczyce.pis.gov.pl
way|438894300|52.0804917|21.0672474|Chylice|7|05-510|Dworska|piaseczno@psse.waw.pl||+48 22 756 46 20|Powiatowa Stacja Sanitarno-Epidemiologiczna|Powiatowa Stacja Sanitarno-Epidemiologiczna w Piasecznie z siedzibą w Chylicach|PSSEP w Chylicach|Sanepid w Chylicach|+48 22 756 43 33||www.piaseczno.psse.waw.pl
way|439243691|51.9289879|22.3800702|Łuków|4|21-400|Spółdzielcza|psse.lukow@pis.gov.pl||+48 25 798 71 78|Powiatowa Stacja Sanitarno-Epidemiologiczna|Powiatowa Stacja Sanitarno-Epidemiologiczna w Łukowie|PSSE w Łukowie|Sanepid w Łukowie|+48 25 798 21 96||www.gov.pl/web/psse-lukow
way|449027980|51.5901083|19.1471205|Łask|38|98-100|Warszawska|psse.lask@pis.gov.pl||+48 43 676 34 16|Powiatowa Stacja Sanitarno - Epidemiologiczna Województwa Łódzkiego||||+48 43 675 22 94||http://www.pis.lodz.pl/lask/
way|550429920|50.5707377|22.0484351|Stalowa Wola|66|37-450|Niezłomnych|psse.stalowawola@pis.gov.pl||+48 15 842 11 81|Powiatowa Stacja Sanitarno-Epidemiologiczna Stalowa Wola||PSSESW|Sanepid|+48 15 842 51 30||https://www.gov.pl/web/psse-stalowa-wola
way|556552821|52.1085393|21.2770078|Otwock|1|05-400|Jana Kilińskiego|otwock@psse.waw.pl||+48 22 779 48 33|Powiatowa Stacja Sanitarno-Epidemiologiczna|Powiatowa Stacja Sanitarno-Epidemiologiczna w Otwocku|PSSE w Otwocku|Sanepid w Otwocku|+48 22 779 48 33||http://otwock.psse.waw.pl/
way|783281162|54.5213088|18.5336318||||||||Powiatowa Stacja Sanitarno-Epidemiologiczna w Gdyni||||+48 58 620 17 98||https://psse.gdynia.pl/
way|865957350|53.6258577|21.8125596|Pisz|5|12-200|Warszawska||||Powiatowa Stacja Sanitarno-Epidemiologiczna||||||
way|1081138968|51.4500527|22.6124482|Lubartów|103|21-100|Lubelska|psse.lubartow@pis.gov.pl||+48 81 855 24 43|Powiatowa Stacja Sanitarno-Epidemiologiczna|Powiatowa Stacja Sanitarno-Epidemiologiczna w Lubartowie|PSSE w Lubartowie|Sanepid w Lubartowie|+48 81 855 22 07||https://www.gov.pl/web/psse-lubartow
way|1097966669|51.1089336|17.0661152||||||||Wojewódzka Stacja Sanitarno-Epidemiologiczna||Sanepid||||http://www.wsse.wroc.pl
